[
  {
    "id": 261772,
    "name": "Íos",
    "state": "",
    "country": "GR",
    "coord": {
      "lon": 25.283331,
      "lat": 36.73333
    }
  },
  {
    "id": 616743,
    "name": "Druzhkivka",
    "state": "",
    "country": "UA",
    "coord": {
      "lon": 37.552589,
      "lat": 48.630131
    }
  },
  {
    "id": 709930,
    "name": "Dnipro",
    "state": "",
    "country": "UA",
    "coord": {
      "lon": 34.98333,
      "lat": 48.450001
    }
  },
  {
    "id": 709932,
    "name": "Kamianske",
    "state": "",
    "country": "UA",
    "coord": {
      "lon": 34.6021,
      "lat": 48.511341
    }
  },
  {
    "id": 709940,
    "name": "Dnipryany",
    "state": "",
    "country": "UA",
    "coord": {
      "lon": 33.272881,
      "lat": 46.746311
    }
  },
  {
    "id": 709954,
    "name": "Dniprovka",
    "state": "",
    "country": "UA",
    "coord": {
      "lon": 34.61805,
      "lat": 47.429451
    }
  },
  {
    "id": 709983,
    "name": "Dmytrivka",
    "state": "",
    "country": "UA",
    "coord": {
      "lon": 32.71645,
      "lat": 48.796902
    }
  },
  {
    "id": 710007,
    "name": "Dmytrivka",
    "state": "",
    "country": "UA",
    "coord": {
      "lon": 38.936611,
      "lat": 47.936111
    }
  },
  {
    "id": 710033,
    "name": "Dmytrivka",
    "state": "",
    "country": "UA",
    "coord": {
      "lon": 28.986389,
      "lat": 45.971668
    }
  },
  {
    "id": 710129,
    "name": "Derazhnya",
    "state": "",
    "country": "UA",
    "coord": {
      "lon": 27.433821,
      "lat": 49.269199
    }
  },
  {
    "id": 710141,
    "name": "Denisovka",
    "state": "",
    "country": "UA",
    "coord": {
      "lon": 34.22234,
      "lat": 44.92186
    }
  },
  {
    "id": 710189,
    "name": "Demidovka",
    "state": "",
    "country": "UA",
    "coord": {
      "lon": 30.25,
      "lat": 47.766666
    }
  },
  {
    "id": 1006984,
    "name": "East London",
    "state": "",
    "country": "ZA",
    "coord": {
      "lon": 27.911619,
      "lat": -33.015289
    }
  },
  {
    "id": 2643734,
    "name": "Londonderry County Borough",
    "state": "",
    "country": "GB",
    "coord": {
      "lon": -7.30917,
      "lat": 54.997211
    }
  },
  {
    "id": 2643736,
    "name": "Derry",
    "state": "",
    "country": "GB",
    "coord": {
      "lon": -7.30934,
      "lat": 54.9981
    }
  },
  {
    "id": 2643737,
    "name": "City of Derry",
    "state": "",
    "country": "GB",
    "coord": {
      "lon": -7.25,
      "lat": 55.0
    }
  },
  {
    "id": 2643741,
    "name": "City of London",
    "state": "",
    "country": "GB",
    "coord": {
      "lon": -0.09184,
      "lat": 51.512791
    }
  },
  {
    "id": 2643743,
    "name": "London",
    "state": "",
    "country": "GB",
    "coord": {
      "lon": -0.12574,
      "lat": 51.50853
    }
  },
  {
    "id": 2643745,
    "name": "Londesborough",
    "state": "",
    "country": "GB",
    "coord": {
      "lon": -0.68333,
      "lat": 53.883331
    }
  },
  {
    "id": 2643773,
    "name": "Loftus",
    "state": "",
    "country": "GB",
    "coord": {
      "lon": -0.89459,
      "lat": 54.555431
    }
  },
  {
    "id": 2643776,
    "name": "Lofthouse",
    "state": "",
    "country": "GB",
    "coord": {
      "lon": -1.49697,
      "lat": 53.729469
    }
  },
  {
    "id": 2648110,
    "name": "Greater London",
    "state": "",
    "country": "GB",
    "coord": {
      "lon": -0.16667,
      "lat": 51.5
    }
  },
  {
    "id": 2648113,
    "name": "Great Eccleston",
    "state": "",
    "country": "GB",
    "coord": {
      "lon": -2.87026,
      "lat": 53.853149
    }
  },
  {
    "id": 3489741,
    "name": "Little London",
    "state": "",
    "country": "JM",
    "coord": {
      "lon": -78.216408,
      "lat": 18.248301
    }
  },
  {
    "id": 4030939,
    "name": "London Village",
    "state": "",
    "country": "KI",
    "coord": {
      "lon": -157.475021,
      "lat": 1.98487
    }
  },
  {
    "id": 4119617,
    "name": "London",
    "state": "AR",
    "country": "US",
    "coord": {
      "lon": -93.25296,
      "lat": 35.328972
    }
  },
  {
    "id": 4298960,
    "name": "London",
    "state": "KY",
    "country": "US",
    "coord": {
      "lon": -84.08326,
      "lat": 37.128979
    }
  },
  {
    "id": 4299275,
    "name": "Louisa",
    "state": "KY",
    "country": "US",
    "coord": {
      "lon": -82.60321,
      "lat": 38.11425
    }
  },
  {
    "id": 4299276,
    "name": "Louisville",
    "state": "KY",
    "country": "US",
    "coord": {
      "lon": -85.759407,
      "lat": 38.254238
    }
  },
  {
    "id": 4361094,
    "name": "Londontowne",
    "state": "MD",
    "country": "US",
    "coord": {
      "lon": -76.549408,
      "lat": 38.933449
    }
  },
  {
    "id": 4400423,
    "name": "New London",
    "state": "MO",
    "country": "US",
    "coord": {
      "lon": -91.400978,
      "lat": 39.58532
    }
  },
  {
    "id": 4400427,
    "name": "New Madrid",
    "state": "MO",
    "country": "US",
    "coord": {
      "lon": -89.527847,
      "lat": 36.586449
    }
  },
  {
    "id": 4400648,
    "name": "Nixa",
    "state": "MO",
    "country": "US",
    "coord": {
      "lon": -93.29435,
      "lat": 37.043388
    }
  },
  {
    "id": 4400673,
    "name": "Noel",
    "state": "MO",
    "country": "US",
    "coord": {
      "lon": -94.485222,
      "lat": 36.545631
    }
  },
  {
    "id": 4517009,
    "name": "London",
    "state": "OH",
    "country": "US",
    "coord": {
      "lon": -83.44825,
      "lat": 39.886452
    }
  },
  {
    "id": 4517140,
    "name": "Loveland",
    "state": "OH",
    "country": "US",
    "coord": {
      "lon": -84.263832,
      "lat": 39.268951
    }
  },
  {
    "id": 4868768,
    "name": "New London",
    "state": "IA",
    "country": "US",
    "coord": {
      "lon": -91.399597,
      "lat": 40.926979
    }
  },
  {
    "id": 5056033,
    "name": "London",
    "state": "MO",
    "country": "US",
    "coord": {
      "lon": -95.234978,
      "lat": 40.445
    }
  },
  {
    "id": 703446,
    "name": "Kyiv Oblast",
    "state": "",
    "country": "UA",
    "coord": {
      "lon": 30.5,
      "lat": 50.25
    }
  },
  {
    "id": 703448,
    "name": "Kyiv",
    "state": "",
    "country": "UA",
    "coord": {
      "lon": 30.516666,
      "lat": 50.433334
    }
  },
  {
    "id": 699761,
    "name": "Nove-Misto",
    "state": "",
    "country": "UA",
    "coord": {
      "lon": 29.828131,
      "lat": 48.981129
    }
  },
  {
    "id": 699777,
    "name": "Nova Vodolaha",
    "state": "",
    "country": "UA",
    "coord": {
      "lon": 35.870781,
      "lat": 49.718498
    }
  },
  {
    "id": 699802,
    "name": "Nova Praha",
    "state": "",
    "country": "UA",
    "coord": {
      "lon": 32.902729,
      "lat": 48.568211
    }
  },
  {
    "id": 699811,
    "name": "Nova Odesa",
    "state": "",
    "country": "UA",
    "coord": {
      "lon": 31.785061,
      "lat": 47.307781
    }
  },
  {
    "id": 698740,
    "name": "Odessa",
    "state": "",
    "country": "UA",
    "coord": {
      "lon": 30.732622,
      "lat": 46.477474
    }
  },
  {
    "id": 3456138,
    "name": "Nova Odessa",
    "state": "",
    "country": "BR",
    "coord": {
      "lon": -47.29583,
      "lat": -22.7775
    }
  },
  {
    "id": 4166787,
    "name": "Odessa",
    "state": "FL",
    "country": "US",
    "coord": {
      "lon": -82.591759,
      "lat": 28.193899
    }
  },
  {
    "id": 4401659,
    "name": "Odessa",
    "state": "MO",
    "country": "US",
    "coord": {
      "lon": -93.95356,
      "lat": 38.999168
    }
  },
  {
    "id": 4998583,
    "name": "Lake Odessa",
    "state": "MI",
    "country": "US",
    "coord": {
      "lon": -85.138344,
      "lat": 42.78476
    }
  },
  {
    "id": 5527554,
    "name": "Odessa",
    "state": "TX",
    "country": "US",
    "coord": {
      "lon": -102.367638,
      "lat": 31.84568
    }
  },
  {
    "id": 5533366,
    "name": "West Odessa",
    "state": "TX",
    "country": "US",
    "coord": {
      "lon": -102.498756,
      "lat": 31.84235
    }
  },
  {
    "id": 2968815,
    "name": "Paris",
    "state": "",
    "country": "FR",
    "coord": {
      "lon": 2.3486,
      "lat": 48.853401
    }
  },
  {
    "id": 2994540,
    "name": "Paris 20 Ménilmontant",
    "state": "",
    "country": "FR",
    "coord": {
      "lon": 2.3984,
      "lat": 48.864601
    }
  },
  {
    "id": 2999139,
    "name": "Le Touquet-Paris-Plage",
    "state": "",
    "country": "FR",
    "coord": {
      "lon": 1.58571,
      "lat": 50.524319
    }
  },
  {
    "id": 3490145,
    "name": "Parish of Hanover",
    "state": "",
    "country": "JM",
    "coord": {
      "lon": -78.133331,
      "lat": 18.41667
    }
  },
  {
    "id": 4125402,
    "name": "Paris",
    "state": "AR",
    "country": "US",
    "coord": {
      "lon": -93.729919,
      "lat": 35.29203
    }
  },
  {
    "id": 4246659,
    "name": "Paris",
    "state": "IL",
    "country": "US",
    "coord": {
      "lon": -87.696136,
      "lat": 39.611149
    }
  },
  {
    "id": 4303602,
    "name": "Paris",
    "state": "KY",
    "country": "US",
    "coord": {
      "lon": -84.252991,
      "lat": 38.209801
    }
  },
  {
    "id": 4402452,
    "name": "Paris",
    "state": "MO",
    "country": "US",
    "coord": {
      "lon": -92.001282,
      "lat": 39.480869
    }
  },
  {
    "id": 4519642,
    "name": "New Paris",
    "state": "OH",
    "country": "US",
    "coord": {
      "lon": -84.793289,
      "lat": 39.856991
    }
  },
  {
    "id": 4647963,
    "name": "Paris",
    "state": "TN",
    "country": "US",
    "coord": {
      "lon": -88.326714,
      "lat": 36.301998
    }
  },
  {
    "id": 4717560,
    "name": "Paris",
    "state": "TX",
    "country": "US",
    "coord": {
      "lon": -95.555511,
      "lat": 33.660938
    }
  },
  {
    "id": 4924135,
    "name": "New Paris",
    "state": "IN",
    "country": "US",
    "coord": {
      "lon": -85.828049,
      "lat": 41.500332
    }
  },
  {
    "id": 4974617,
    "name": "Paris",
    "state": "ME",
    "country": "US",
    "coord": {
      "lon": -70.500618,
      "lat": 44.259789
    }
  },
  {
    "id": 4979220,
    "name": "South Paris",
    "state": "ME",
    "country": "US",
    "coord": {
      "lon": -70.51339,
      "lat": 44.223679
    }
  },
  {
    "id": 4982671,
    "name": "West Paris",
    "state": "ME",
    "country": "US",
    "coord": {
      "lon": -70.573952,
      "lat": 44.32423
    }
  },
  {
    "id": 6618607,
    "name": "Paris 01",
    "state": "",
    "country": "FR",
    "coord": {
      "lon": 2.3417,
      "lat": 48.8592
    }
  },
  {
    "id": 6618620,
    "name": "Paris 14",
    "state": "",
    "country": "FR",
    "coord": {
      "lon": 2.3264,
      "lat": 48.833099
    }
  },
  {
    "id": 6618626,
    "name": "Paris 20",
    "state": "",
    "country": "FR",
    "coord": {
      "lon": 2.3984,
      "lat": 48.864601
    }
  },
  {
    "id": 702550,
    "name": "Lviv",
    "state": "",
    "country": "UA",
    "coord": {
      "lon": 24.023239,
      "lat": 49.838261
    }
  },
  {
    "id": 706483,
    "name": "Kharkiv",
    "state": "",
    "country": "UA",
    "coord": {
      "lon": 36.25,
      "lat": 50.0
    }
  },
  {
    "id": 689558,
    "name": "Vinnytsia",
    "state": "",
    "country": "UA",
    "coord": {
      "lon": 28.48097,
      "lat": 49.23278
    }
  },
  {
    "id": 702569,
    "name": "Lutsk",
    "state": "",
    "country": "UA",
    "coord": {
      "lon": 25.34244,
      "lat": 50.759319
    }
  },
  {
    "id": 692194,
    "name": "Sumy",
    "state": "",
    "country": "UA",
    "coord": {
      "lon": 34.800289,
      "lat": 50.9216
    }
  },
  {
    "id": 706448,
    "name": "Kherson",
    "state": "",
    "country": "UA",
    "coord": {
      "lon": 32.617802,
      "lat": 46.655811
    }
  },
  {
    "id": 687700,
    "name": "Zaporizhia",
    "state": "",
    "country": "UA",
    "coord": {
      "lon": 35.183331,
      "lat": 47.816669
    }
  },
  {
    "id": 4925561,
    "name": "Rome City",
    "state": "IN",
    "country": "US",
    "coord": {
      "lon": -85.376648,
      "lat": 41.496159
    }
  }
]
